{
"type": "FeatureCollection",
"name": "department_store",
"crs": { "type": "name", "properties": { "name": "urn:ogc:def:crs:OGC:1.3:CRS84" } },
"features": [
{ "type": "Feature", "properties": { "name": "สำนักงานใหญ่ เทสโก้โลตัส", "address": "699 อาคารโมเดอร์นฟอร์มทาวเวอร์ กรุงเทพฯ", "dcode": "1034", "tel": "02-7229640-79", "time": "เวลาเปิด/ปิด 8.00 - 17.00 น." }, "geometry": { "type": "Point", "coordinates": [ 100.641992518129555, 13.730651318269315 ] } },
{ "type": "Feature", "properties": { "name": "คาร์ฟู สาขาสุขาภิบาล 3", "address": "643/7 ถ.สุขาภิบาล 3 แขวงหัวหมาก กรุงเทพฯ", "dcode": "1006", "tel": "02-735-3062-73", "time": "เวลาเปิด/ปิด 8.00 - 17.00 น." }, "geometry": { "type": "Point", "coordinates": [ 100.658395876337934, 13.770857331708397 ] } },
{ "type": "Feature", "properties": { "name": "เทสโก้โลตัส สาขาจรัญสนิทวงศ์", "address": "244 ถ.จรัญสนิทวงศ์70 แขวงบางพลัด กรุงเทพฯ", "dcode": "1025", "tel": "02-4348800", "time": "เวลาเปิด/ปิด 8.00 - 17.00 น." }, "geometry": { "type": "Point", "coordinates": [ 100.502380801072349, 13.787931821226289 ] } },
{ "type": "Feature", "properties": { "name": "เทสโก้โลตัส สาขาแจ้งวัฒนะ", "address": "300 ถ.แจ้งวัฒนะ แขวงทุ่งสองห้อง เขตหลักสี่ กรุงเทพฯ", "dcode": "1041", "tel": "02-9907555-79", "time": "เวลาเปิด/ปิด 8.00 - 17.00 น." }, "geometry": { "type": "Point", "coordinates": [ 100.556149853840054, 13.895829017006767 ] } },
{ "type": "Feature", "properties": { "name": "เทสโก้โลตัส สาขาซีคอน สแควร์", "address": "55/2 ถ.ศรีนครินทร์ แขวงหนองบอน เขตประเวศ กรุงเทพฯ", "dcode": "1032", "tel": "02-7219088-117", "time": "เปิดเวลา:  09:00-23:00น." }, "geometry": { "type": "Point", "coordinates": [ 100.648030835192046, 13.692541096755056 ] } },
{ "type": "Feature", "properties": { "name": "เทสโก้โลตัส สาขาบางแค", "address": "266 ถ.เพชรเกษม แขวงบางแคเหนือ เขตบางแค", "dcode": "1040", "tel": "02-8044800-35", "time": "เปิดเวลา 09:00-23:00 น." }, "geometry": { "type": "Point", "coordinates": [ 100.418522260680135, 13.712962244176527 ] } },
{ "type": "Feature", "properties": { "name": "เทสโก้โลตัส สาขาบางกะปิ", "address": "3109 ถ.ลาดพร้าว แขวงคลองจั่น เขตบางกะปิ", "dcode": "1006", "tel": "02-730444", "time": "เปิดเวลา 09:00-23:00น." }, "geometry": { "type": "Point", "coordinates": [ 100.644341534490835, 13.767643639564257 ] } },
{ "type": "Feature", "properties": { "name": "เทสโก้โลตัส สาขาบางปะกอก", "address": "538/2 ม.4ถ.สุขสวัสดิ์ 27 แขวงบางปะกอก เขตราษฎรบูรณะ กรุงเทพฯ", "dcode": "1024", "tel": "02-8721500-24", "time": "เปิดเวลา 09:00-23:00น." }, "geometry": { "type": "Point", "coordinates": [ 100.501647341330951, 13.678372412676234 ] } },
{ "type": "Feature", "properties": { "name": "เทสโก้โลตัส สาขาประชาชื่น", "address": "829 ถ.ประชาราษฎรสาย 2 แขวงบางซื่อ เขตบางซื่อ กรุงเทพฯ", "dcode": "1029", "tel": "02-8721500-24", "time": "เปิดเวลา 09:00-23:00น." }, "geometry": { "type": "Point", "coordinates": [ 100.534483899656934, 13.805958100078932 ] } },
{ "type": "Feature", "properties": { "name": "เทสโก้โลตัส สาขาพระราม 2", "address": "88/2528 ม.6 ถ.พระรามที่ 2 แขวงแสมดำ เขตบางขุนเทียน กรุงเทพฯ", "dcode": "1021", "tel": "02-8928130-55", "time": "เปิดเวลา 09:00-23:00น." }, "geometry": { "type": "Point", "coordinates": [ 100.418894146936637, 13.64782875981968 ] } },
{ "type": "Feature", "properties": { "name": "เทสโก้โลตัส สาขาพระราม 3", "address": "172 ถ.นราธิวาสราชนครินทร์ แขวงช่องนนทรี เขตยานนาวา กรุงเทพฯ", "dcode": "1012", "tel": "02-6810920-44", "time": "เปิดเวลา 09:00-23:00น." }, "geometry": { "type": "Point", "coordinates": [ 100.535946656389584, 13.69554590291105 ] } },
{ "type": "Feature", "properties": { "name": "เทสโก้โลตัส สาขาพระราม 4", "address": "3300 ถ.พระราม 4 แขวงคลองตัน เขตคลองเตย กรุงเทพฯ", "dcode": "1033", "tel": "02-6728585-90", "time": "เปิดเวลา 09:00-23:00น." }, "geometry": { "type": "Point", "coordinates": [ 100.567593510062892, 13.71830384388508 ] } },
{ "type": "Feature", "properties": { "name": "เทสโก้โลตัส สาขามีนบุรี", "address": "73 ม.18 ถ.สุวินทวงศ์  แขวงมีนบุรี เขตมีนบุรี กรุงเทพฯ", "dcode": "1010", "tel": "02-6420500-30", "time": "เปิดเวลา 09:00-23:00น." }, "geometry": { "type": "Point", "coordinates": [ 100.728335801289589, 13.816896982643645 ] } },
{ "type": "Feature", "properties": { "name": "เทสโก้โลตัส สาขาฟอร์จูน ทาวน์", "address": "7/1 ฟอร์จูนทาวเวอร์ ถ.รัชดา แขวงดินแดง เขตดินแดง กรุงเทพฯ", "dcode": "1026", "tel": "02-6420500-30", "time": "เปิดเวลา 09:00-23:00น." }, "geometry": { "type": "Point", "coordinates": [ 100.564633730380621, 13.756610387415279 ] } },
{ "type": "Feature", "properties": { "name": "เทสโก้โลตัส สาขารามอินทรา", "address": "14/2 ม.8 ถ.ประดิษฐมนูธรรม แขวงลาดพร้าว เขตลาดพร้าว กรุงเทพฯ", "dcode": "1038", "tel": "02-9359800-19", "time": "เปิดเวลา 09:00-23:00น." }, "geometry": { "type": "Point", "coordinates": [ 100.614877579293704, 13.802265599832344 ] } },
{ "type": "Feature", "properties": { "name": "เทสโก้โลตัส สาขาถนนลาดพร้าว-ถนนพหลโยธิน", "address": "1190 ถ.พหลโยธิน แขวงจอมพล เขตจตุจักร กรุงเทพฯ", "dcode": "1030", "tel": "02-930-9444", "time": "เปิดเวลา 09:00-23:00น." }, "geometry": { "type": "Point", "coordinates": [ 100.563067042123222, 13.817144575899336 ] } },
{ "type": "Feature", "properties": { "name": "เทสโก้โลตัส สุขาภิบาล 1", "address": "629 ม.10 ถ.นวมินทร์ แขวงคลองกุ่ม เขตบึงกุ่ม กรุงเทพฯ", "dcode": "1027", "tel": "08-9477720-25", "time": "เปิดเวลา 09:00-23:00น." }, "geometry": { "type": "Point", "coordinates": [ 100.656704191810263, 13.824315722643897 ] } },
{ "type": "Feature", "properties": { "name": "เทสโก้โลตัส สาขาสุขุมวิท50", "address": "1710 ถ.สุขุมวิท แขวงพระโขนง เขตพระโขนง กรุงเทพฯ", "dcode": "1033", "tel": "02-7414444", "time": "เปิดเวลา 09:00-23:00น." }, "geometry": { "type": "Point", "coordinates": [ 100.600845285116321, 13.705293522381679 ] } },
{ "type": "Feature", "properties": { "name": "เทสโก้โลตัส สาขาหลักสี่", "address": "559 ม.3 ถ.พหลโยธิน แขวงอนุสาวรีย์ กรุงเทพฯ", "dcode": "1005", "tel": "02-955-7500-24", "time": "เปิดเวลา 09:00-23:00น." }, "geometry": { "type": "Point", "coordinates": [ 100.600669721113562, 13.879182636209064 ] } },
{ "type": "Feature", "properties": { "name": "คาร์ฟู สาขาสุวินทวงศ์", "address": "123 ม.16 ถ.สุวินทวงศ์  แขวงมีนบุรี เขตมีนบุรี กรุงเทพฯ", "dcode": "1010", "tel": "02-9064814-21", "time": "เปิดเวลา ทุกวัน 09:00-23:00 น." }, "geometry": { "type": "Point", "coordinates": [ 100.719680150144157, 13.817248984893268 ] } },
{ "type": "Feature", "properties": { "name": "คาร์ฟู สาขาเพชรเกษม", "address": "29/1 ม.11 ถ.เพชชรเกษม แขวงหนองค้างพลู เขตหนองแขม กรุงเทพฯ", "dcode": "1023", "tel": "02-807-4754-60", "time": "เปิดเวลา: ทุกวัน 09:00-23:00น." }, "geometry": { "type": "Point", "coordinates": [ 100.366810255167607, 13.709153310865945 ] } },
{ "type": "Feature", "properties": { "name": "คาร์ฟู สาขารามอินทรา", "address": "59 ม.4 ถ.รามอินทรา กม.25 แขวงอนุสาวรีย์ เขตบางเขน กรุงเทพฯ", "dcode": "1005", "tel": "02-9717555-62", "time": "เปิดเวลา ทุกวัน 09:00-23:00น." }, "geometry": { "type": "Point", "coordinates": [ 100.617409446808736, 13.861354654754564 ] } },
{ "type": "Feature", "properties": { "name": "คาร์ฟู สาขาพระราม 4", "address": "2929 ถ.พระราม 4 แขวงคลองตัน เขตคลองเตย กรุงเทพฯ", "dcode": "1033", "tel": "02-971-7555-62", "time": "เปิดเวลา ทุกวัน 09:00-23:00น." }, "geometry": { "type": "Point", "coordinates": [ 100.568345035941562, 13.718816177672929 ] } },
{ "type": "Feature", "properties": { "name": "คาร์ฟู สาขาบางแค", "address": "110/6 ม.9 ถ.เพชรเกษม แขวงบางหว้า เขตภาษีเจริญ กรุงเทพฯ", "dcode": "1022", "tel": "02-8047340-43", "time": "เปิดเวลา ทุกวัน 09:00-23:00น." }, "geometry": { "type": "Point", "coordinates": [ 100.433730601754803, 13.711464737425205 ] } },
{ "type": "Feature", "properties": { "name": "คาร์ฟู สาขารัชดาภิเษก", "address": "125 ถ.รัชดาภิเษก แขวงดินแดง เขตดินแดง กรุงเทพฯ", "dcode": "1026", "tel": "02-354-0570", "time": "เปิดเวลา ทุกวัน 09:00-23:00น." }, "geometry": { "type": "Point", "coordinates": [ 100.571609317497135, 13.768747068884334 ] } },
{ "type": "Feature", "properties": { "name": "คาร์ฟู สาขาบางบอน", "address": "19/164 ม.6 ถ.เอกชัย แขวงบางบอน เขตบางบอน กรุงเทพฯ", "dcode": "1050", "tel": "02-898-0991-8", "time": "เปิดเวลา ทุกวัน 09:00-23:00น." }, "geometry": { "type": "Point", "coordinates": [ 100.435154880281402, 13.678897159677573 ] } },
{ "type": "Feature", "properties": { "name": "คาร์ฟู สาขาบางปะกอก", "address": "278 ม.1 ถ.สุขสวัสดิ์ แขวงบางปะกอก เขตราษฎร์บูรณะ กรุงเทพฯ", "dcode": "1024", "tel": "02-898-0991-8", "time": "เปิดเวลา ทุกวัน 09:00-23:00น." }, "geometry": { "type": "Point", "coordinates": [ 100.490711650159142, 13.683474306226159 ] } },
{ "type": "Feature", "properties": { "name": "คาร์ฟู สาขาอ่อนนุช", "address": "114 ซ.อ่อนนุช 1 ถ.สุขุมวิท แขวงพระโขนงเหนือ เขตวัฒนา กรุงเทพฯ", "dcode": "1039", "tel": "02-311-8099", "time": "เปิดเวลา ทุกวัน 09:00-23:00น." }, "geometry": { "type": "Point", "coordinates": [ 100.601503643889501, 13.709226459906187 ] } },
{ "type": "Feature", "properties": { "name": "คาร์ฟู สาขาลาดพร้าว", "address": "669 ถ.ลาดพร้าว แขวงจอมพล เขตจตุจักร กรุงเทพฯ", "dcode": "1030", "tel": "02-983-7333", "time": "เปิดเวลา ทุกวัน 09:00-23:00น." }, "geometry": { "type": "Point", "coordinates": [ 100.565811263916217, 13.81070991520175 ] } },
{ "type": "Feature", "properties": { "name": "คาร์ฟู สาขาอิสรภาพ", "address": "2 ถ.อิสรภาพ วัดกัลยา  เขตธนบุรี กรุงเทพฯ", "dcode": "1015", "tel": "02-890-3000", "time": "เปิดเวลา ทุกวัน 09:00-23:00น." }, "geometry": { "type": "Point", "coordinates": [ 100.492265101616383, 13.732876619129321 ] } },
{ "type": "Feature", "properties": { "name": "คาร์ฟู สาขาสุขาภิบาล 1", "address": "13/40 ถ.นวมินทร์ ม.9 แขวบคลองกุ่ม เขตบึงกุ่ม กรุงเทพฯ", "dcode": "1027", "tel": "02-9468700", "time": "เปิดเวลา ทุกวัน 09:00-23:00น." }, "geometry": { "type": "Point", "coordinates": [ 100.647485065971125, 13.813694607001564 ] } },
{ "type": "Feature", "properties": { "name": "คาร์ฟู สาขาหนองจอก", "address": "34 ม 1 ถ.เลียบทวี แขวงกระทุ่มราย เขตหนองจอก กรุงเทพฯ", "dcode": "1003", "tel": "02-9857800", "time": "เปิดเวลา ทุกวัน 09:00-23:00น." }, "geometry": { "type": "Point", "coordinates": [ 100.855572460512207, 13.855567220725746 ] } },
{ "type": "Feature", "properties": { "name": "คาร์ฟู สาขาพระราม 2", "address": "189/1 ม.6 ถ.พระรามที่2 แขวงแสมดำ เขตบางขุนเทียน กรุงเทพฯ", "dcode": "1021", "tel": "02-4513222", "time": "เปิดเวลา ทุกวัน 09:00-23:00น." }, "geometry": { "type": "Point", "coordinates": [ 100.416232697108583, 13.647045744683428 ] } },
{ "type": "Feature", "properties": { "name": "คาร์ฟู สาขาสวนหลวง", "address": "314-314/1 ถ.เฉลิมพระเกียรติ ร.9 แขวงหนองบอน เขตประเวศ กรุงเทพฯ", "dcode": "1032", "tel": "02-3282100", "time": "เปิดเวลา ทุกวัน 09:00-23:00น." }, "geometry": { "type": "Point", "coordinates": [ 100.668367523236739, 13.686725483683139 ] } },
{ "type": "Feature", "properties": { "name": "เทสโก้โลตัส สาขาปิ่นเกล้า", "address": "9 ม.6 ถ.บรมราชชนนี แขวงอรุณอัมรินทร์ เขตบางกอกน้อย กรุงเทพฯ", "dcode": "1020", "tel": "02-8845565", "time": "เปิดเวลา 09:00-23:00น." }, "geometry": { "type": "Point", "coordinates": [ 100.47799266134696, 13.776432137477467 ] } },
{ "type": "Feature", "properties": { "name": "คาร์ฟู สาขาสายไหม", "address": "89-89/3 ม.3 ถ.สายไหม แขวงสายไหม เขตสายไหม กรุงเทพฯ", "dcode": "1042", "tel": "02-976-4300", "time": "เปิดเวลา ทุกวัน 09:00-23:00น." }, "geometry": { "type": "Point", "coordinates": [ 100.680760899341038, 13.921209928843627 ] } },
{ "type": "Feature", "properties": { "name": "บิ๊กซี สำนักงานใหญ่", "address": "97/11 ชั้น 6 ถ.ราชดำริห์ แขวงลุมพินี เขตปทุมวัน", "dcode": "1007", "tel": "02655-0666", "time": "เวลาเปิด/ปิด 8.00 - 17.00 น." }, "geometry": { "type": "Point", "coordinates": [ 100.541006600946602, 13.74745908953633 ] } },
{ "type": "Feature", "properties": { "name": "บิ๊กซี สาขาดอนเมือง", "address": "1 ถ.พหลโยธิน ซ.พหลโยธิน 50 แขวงอนุสาวรีย์ เขตบางเขน กรุงเทพฯ", "dcode": "1005", "tel": "02-973-7222-36", "time": "ทุกวัน 9.00 - 23.00 น." }, "geometry": { "type": "Point", "coordinates": [ 100.605616500032298, 13.890389715283334 ] } },
{ "type": "Feature", "properties": { "name": "บิ๊กซี สาขาดาวคนอง", "address": "1050 ถ.สมเด็จพระเจ้าตากสิน  แขวงบุคโล เขตธนบุรี กรุงเทพฯ", "dcode": "1015", "tel": "02-876-2777-91", "time": "ทุกวัน 9.00 - 23.00 น." }, "geometry": { "type": "Point", "coordinates": [ 100.482684095734726, 13.699058830938188 ] } },
{ "type": "Feature", "properties": { "name": "บิ๊กซี สาขาหัวหมาก", "address": "2001 ถ.รามคำแหง แขวงหัวหมาก เขตบางกะปิ กรุงเทพฯ", "dcode": "1006", "tel": "02-718-6000", "time": "ทุกวัน 9.00 - 23.00 น." }, "geometry": { "type": "Point", "coordinates": [ 100.612228655975358, 13.756059600029916 ] } },
{ "type": "Feature", "properties": { "name": "บิ๊กซี สาขาบางนา", "address": "111 ถ.บางนา - ตราด แขวงบางนส เขตบางนา กรุงเทพฯ", "dcode": "1047", "tel": "02-2744-3260-73", "time": "ทุกวัน 9.00 - 23.00 น." }, "geometry": { "type": "Point", "coordinates": [ 100.635508340709421, 13.668642108874172 ] } },
{ "type": "Feature", "properties": { "name": "บิ๊กซี สาขาสะพานควาย", "address": "618/1 ถ. พหลโยธิน แขวงสามเสนใน เขตพญาไท กรุงเทพฯ", "dcode": "1014", "tel": "02-616-7555", "time": "ทุกวัน 9.00 - 23.00 น." }, "geometry": { "type": "Point", "coordinates": [ 100.549706274822384, 13.790971472630668 ] } },
{ "type": "Feature", "properties": { "name": "บิ๋กซี สาขาลาดพร้าว", "address": "2539 ถ.ลาดพร้าว83 แขวงคลองเจ้าคุณสิงห์ เขตวังทองหลาง กรุงเทพฯ", "dcode": "1045", "tel": "02-934-9888-96", "time": "ทุกวัน 9.00 - 23.00 น." }, "geometry": { "type": "Point", "coordinates": [ 100.612345045409299, 13.785535207951369 ] } },
{ "type": "Feature", "properties": { "name": "บิ๊กซี สาขาราชดำริ", "address": "97/11 ถ.ราชดำริห์ แขวงลุมพินี เขตปทุมวัน กรุงเทพฯ", "dcode": "1007", "tel": "02-250-4888", "time": "ทุกวัน 9.00 - 23.00 น." }, "geometry": { "type": "Point", "coordinates": [ 100.541224429940755, 13.745938147528255 ] } },
{ "type": "Feature", "properties": { "name": "บิ๊กซี สาขาแฟชั่นไอส์แลนด์", "address": "2539 ถ.ลาดพร้าว แขวงวังทองหลาง เขตวังทองหลาง กรุงเทพฯ", "dcode": "1043", "tel": "02-9349888-96", "time": "ทุกวัน 9.00 - 23.00 น." }, "geometry": { "type": "Point", "coordinates": [ 100.678922795065759, 13.825841248280383 ] } },
{ "type": "Feature", "properties": { "name": "บิ๊กซี สาขาวงศ์สว่าง", "address": "888 ถ.พิบูลย์สงครา แขวงบางซื่อ เขตบางซื่อ กรุงเทพฯ", "dcode": "1029", "tel": "02-587-2055", "time": "ทุกวัน 9.00 - 23.00 น." }, "geometry": { "type": "Point", "coordinates": [ 100.528296515422937, 13.826863350269239 ] } },
{ "type": "Feature", "properties": { "name": "บิ๊กซี สาขาธนบุรี ปากท่อ", "address": "56 ม.6 แขวงแสมดำ เขตบางขุนเทียน กรุงเทพฯ", "dcode": "1021", "tel": "02-8957600", "time": "ทุกวัน 9.00 - 23.00 น." }, "geometry": { "type": "Point", "coordinates": [ 100.440406172969617, 13.662033529067292 ] } },
{ "type": "Feature", "properties": { "name": "บิ๊กซี  สาขาราษฎร์บูรณะ", "address": "19 ม. 9 ถ.ราษฎร์บูรระ แขวงบางปะกอก เขตราษฎร์บูรณะ กรุงเทพฯ", "dcode": "1024", "tel": "02-873-1200", "time": "ทุกวัน 9.00 - 23.00 น." }, "geometry": { "type": "Point", "coordinates": [ 100.500212655603718, 13.68326266272642 ] } },
{ "type": "Feature", "properties": { "name": "บิ๊กซี สาขาแจ้งวัฒนะ", "address": "96 ม.1 ถ.แจ้งวัฒนะ แขวงหลักสี่ เขตหลักสี่ กรุงเทพฯ", "dcode": "1041", "tel": "02-573-5800", "time": "ทุกวัน 9.00 - 23.00 น." }, "geometry": { "type": "Point", "coordinates": [ 100.560769682087823, 13.893491290575424 ] } },
{ "type": "Feature", "properties": { "name": "สำนักงานใหญ่ บริษัท สหฟาร์ม จำกัด", "address": "44/4 ถ.นวมินทร์ แขวงคลองกุ่ม เขตบึงกุ่ม กรุงเทพฯ", "dcode": "1027", "tel": "02-510-5737", "time": "-" }, "geometry": { "type": "Point", "coordinates": [ 100.659729907346161, 13.833186906477932 ] } },
{ "type": "Feature", "properties": { "name": "ห้างสรรพสินค้า ตั้งฮั่วเส็ง สาขาธนบุรี", "address": "289 ถ.สิรินธร แขวงบางบำหรุ เขตบางพลัด กรุงเทพฯ", "dcode": "1025", "tel": "02-4340448,02-881-9500", "time": "วันเวลา เปิด-ปิด 10.00น.-22.00" }, "geometry": { "type": "Point", "coordinates": [ 100.482679228678577, 13.787935686457329 ] } },
{ "type": "Feature", "properties": { "name": "ห้างสรรพสินค้า ตั้งฮั่วเส็ง สาขาบางลำพู", "address": "172-182 ถ.จักรพงษ์ บางลำพู กรุงเทพฯ", "dcode": "1001", "tel": "02-280-0936-42", "time": "เวลา เปิด-ปิด10.00น.-21.30น" }, "geometry": { "type": "Point", "coordinates": [ 100.497571710999139, 13.761125197865285 ] } },
{ "type": "Feature", "properties": { "name": "สำนักงานใหญ่เดอะมอลล์", "address": "ถนนรามคำแหง แขวงหัวหมาก เขตบางกะปิ กรุงเทพฯ", "dcode": "1006", "tel": "-", "time": "เปิดปิดเวลา 10.00 - 20.00 น" }, "geometry": { "type": "Point", "coordinates": [ 100.610739343040962, 13.751671409285207 ] } },
{ "type": "Feature", "properties": { "name": "ห้างสรรพสินค้าเดอะมอลล์ 3", "address": "1911 ถนนรามคำแหง แขวงหัวหมาก เขต บางกะปิ กรุงเทพฯ", "dcode": "1006", "tel": "-", "time": "ทุกวัน 10.30 น. -21.00 น" }, "geometry": { "type": "Point", "coordinates": [ 100.609439676225136, 13.752881686612502 ] } },
{ "type": "Feature", "properties": { "name": "เดอะมอลล์ สาขาโฮม เฟรช มาร์ท", "address": "ถนนรามคำแหง แขวงหัวหมาก เขตบางกะปิ กรุงเทพฯ", "dcode": "1006", "tel": "-", "time": "จันทร์-ศุกร์ 10.30-22.00น.เสาร์-อาทิตย์10.00-24.00น." }, "geometry": { "type": "Point", "coordinates": [ 100.610568968744758, 13.75108117601096 ] } },
{ "type": "Feature", "properties": { "name": "เดอะมอลล์ สาขาท่าพระ", "address": "99 ถรัชดาภิเษก  แขวงบุคคโล เขตธนบุรี กรุงเทพฯ", "dcode": "1015", "tel": "-", "time": "จันทร์-ศุกร์10.30-22.00น" }, "geometry": { "type": "Point", "coordinates": [ 100.479739354604376, 13.713563113990542 ] } },
{ "type": "Feature", "properties": { "name": "เดอะมอลล์ สาขาบางแค", "address": "275ม.2 ถ.เพชรเกษม แขวงบางแคเหนือ เขตบางแค กรุงเทพฯ", "dcode": "1040", "tel": "-", "time": "วันจันทร์-ศุกร์ 10.00 น. - 22.00 น.เสาร์-อาทิตย์ 10.00น.-23.00น." }, "geometry": { "type": "Point", "coordinates": [ 100.407798881407061, 13.713505813769645 ] } },
{ "type": "Feature", "properties": { "name": "เดอะมอลล์สาขาบางกะปิ", "address": "3522 ถ.ลาดพร้าว แขวงคลองจั่น เขตบางกะปิ กรุงเทพฯ", "dcode": "1006", "tel": "02-318-9190", "time": "เวลาเปิด / ปิด :10.30-21.00น" }, "geometry": { "type": "Point", "coordinates": [ 100.641913882042203, 13.766109115841777 ] } },
{ "type": "Feature", "properties": { "name": "ฟูดแลนด์ สำนักงานใหญ่", "address": "2675 ถ.ลาดพร้าว ซ.95 แขวงวังทองหลาง เขตวังทองหลาง กรุงเทพฯ", "dcode": "1045", "tel": "02-530-0220-22", "time": "จันทร์-ศุกร์ : 8.30-18.00 เสาร์ 9.00-16.00" }, "geometry": { "type": "Point", "coordinates": [ 100.623160635024036, 13.779305096837652 ] } },
{ "type": "Feature", "properties": { "name": "ฟูดแลนด์ สาขาพัฒน์พงศ์", "address": "9 ชั้นล่าง ถ.พัฒน์พงษ์ แขวงสุริยวงศ์ เขตบางรัก กรุงเทพฯ", "dcode": "1004", "tel": "02-234-4558", "time": "จันทร์-ศุกร์ : 8.30-18.00 เสาร์ 9.00-16.00 ." }, "geometry": { "type": "Point", "coordinates": [ 100.53245219750039, 13.729787886591163 ] } },
{ "type": "Feature", "properties": { "name": "ฟูดแลนด์ สาขาหัวหมาก", "address": "1851 ถ.สุขุมวิท แขวงหัวหมาก เขตบางกะปิ กรุงเทพฯ", "dcode": "1006", "tel": "02-314-6763", "time": "เปิดบริการ 24 ชั่วโมง" }, "geometry": { "type": "Point", "coordinates": [ 100.607694747535646, 13.750198086537338 ] } },
{ "type": "Feature", "properties": { "name": "ฟูดแลนด์ สาขาเพชรบุรี", "address": "2443 ถ.เพชรบุรีตัดใหม่ แขวงบางกะปิ เขตห้วยขวาง กรุงเทพฯ", "dcode": "1017", "tel": "02-318-2063", "time": "เปิดบริการ 24 ชั่วโมง" }, "geometry": { "type": "Point", "coordinates": [ 100.591083919458185, 13.743774904781111 ] } },
{ "type": "Feature", "properties": { "name": "ฟูดแลนด์ สาขารามอินทรา", "address": "78/5 ม.4 ถ.รามอินทรา แขวงอนุสาวรีย์ เขตบางเขน กรุงเทพฯ", "dcode": "1005", "tel": "02-521-2560", "time": "เปิดบริการ 24 ชั่วโมง" }, "geometry": { "type": "Point", "coordinates": [ 100.62436504803523, 13.860152739210122 ] } },
{ "type": "Feature", "properties": { "name": "ฟูดแลนด์ สาขาสุขุมวิท ซอย 5", "address": "87 อาคารนายเลิศ ชั้นล่าง สุขมวิท 5 ถ.สุขุมวิท คลองเตยเหนือ กรุงเทพฯ", "dcode": "1039", "tel": "02-254-2247", "time": "เปิดบริการ 24 ชั่วโมง" }, "geometry": { "type": "Point", "coordinates": [ 100.553992575036844, 13.742292918112968 ] } },
{ "type": "Feature", "properties": { "name": "ฟูดแลนด์ สาขาลาดพร้าว", "address": "2675 หมู่ 9 ถ.ลาดพร้าว ซ.95 แขวงวังทองหลาง เขตวังทองหลาง กรุงเทพ", "dcode": "1045", "tel": "02-530-0220-7", "time": "เปิดบริการ 24 ชั่วโมง" }, "geometry": { "type": "Point", "coordinates": [ 100.62310084957096, 13.779151652088803 ] } },
{ "type": "Feature", "properties": { "name": "ฟูดแลนด์ สาขาจรัญสนิทวงศ์", "address": "262 ซ.จรัญสนิทวงค์ ถ.จรัญสนิทวงศ์ แขวงบ้านช่างหล่อ เขตบางกอกน้อย กรุงเทพฯฯ", "dcode": "1020", "tel": "02-411-3333", "time": "เปิดบริการ 24 ชั่วโมง" }, "geometry": { "type": "Point", "coordinates": [ 100.472226128353299, 13.760402051898859 ] } },
{ "type": "Feature", "properties": { "name": "ห้างสรรพสินค้าพาต้า ปิ่นเกล้า สำนักงานใหญ่", "address": "125 ถ.สมเด็จพระปิ่นเกล้า แขวงบางยี่ขัน เขตบางพลัด กรุงเทพฯ", "dcode": "1025", "tel": "02-434-3333", "time": "เวลาเปิด / ปิด :10.30-21.30น" }, "geometry": { "type": "Point", "coordinates": [ 100.485144567287577, 13.773005224176789 ] } },
{ "type": "Feature", "properties": { "name": "ห้างสรรพสินค้ามาบุญครอง", "address": "ถนนพญาไท แขวงวังใหม่ เขตปทุมวัน กรุงเทพฯ", "dcode": "1007", "tel": "-", "time": "เวลาเปิด / ปิด :10.00-21.00น" }, "geometry": { "type": "Point", "coordinates": [ 100.52969940336213, 13.744631451877064 ] } },
{ "type": "Feature", "properties": { "name": "ห้างสรรพสินค้าโตคิว สำนักงานใหญ่", "address": "444 อาคารมาบุญครองเซ็นเตอร์ ถ.พญาไท แขวงวังใหม่ เขตปทุมวัน กรุงเทพฯ", "dcode": "1007", "tel": "02-2217-9023", "time": "เวลาเปิด / ปิด :10.30-21.00น" }, "geometry": { "type": "Point", "coordinates": [ 100.529713231817254, 13.744210449724026 ] } },
{ "type": "Feature", "properties": { "name": "ห้างสรรพสินค้าเซ็นทรัลปิ่นเกล้า", "address": "ถ.บรมราชชนนี  แขวงอรุณอัมรินทร์  เขตบางกอกน้อย กรุงเทพฯ", "dcode": "1020", "tel": "02-8848000-2", "time": "จันทร์-ศุกร์ 11:00-21:30 เสาร์ 10:00-22:00 อาทิตย์ 10:00-22:00" }, "geometry": { "type": "Point", "coordinates": [ 100.475891317670147, 13.777349509923125 ] } },
{ "type": "Feature", "properties": { "name": "ห้างสรรพสินค้า จัสโก้ สาขารัชดาภิเษก", "address": "129 ถ.รัชดาภิเษก แขวงดินแดง เขตดินแดง กรุงเทพฯ", "dcode": "1026", "tel": "02-246-4694-8", "time": "จันทร์-ศุกร์ 11:00-21:30 เสาร์ 10:00-22:00 อาทิตย์ 10:00-22:00" }, "geometry": { "type": "Point", "coordinates": [ 100.569899410524272, 13.768217015077896 ] } },
{ "type": "Feature", "properties": { "name": "ห้างสรรพสินค้า จัสโก้ สาขาสุขุมวิท71", "address": "140 ถ.สุขุมวิท71 แขวงพระโขนงเหนือ เขตวัฒนา กรุงเทพฯ", "dcode": "1039", "tel": "02-382-2001-5", "time": "เปิดบริการ 24 ชั่วโมง" }, "geometry": { "type": "Point", "coordinates": [ 100.596934927388915, 13.71872850341826 ] } },
{ "type": "Feature", "properties": { "name": "ห้างสรรพสินค้า จัสโก้ สาขาประชาอุทิศ", "address": "11/12 ม.1 ถ.ประชาอุทิศ แขวงทุ่งครุ เขตทุ่งครุ กรุงเทพฯ", "dcode": "1049", "tel": "02-873-5032-7", "time": "เปิดบริการ 24 ชั่วโมง" }, "geometry": { "type": "Point", "coordinates": [ 100.501196866954274, 13.639913767033665 ] } },
{ "type": "Feature", "properties": { "name": "ห้างสรรพสินค้า จัสโก้ สาขา ศรีนครินทร์", "address": "2669 ถ.พัฒนาการ แขวงสวนหลวง เขตสวนหลวง", "dcode": "1034", "tel": "02-2322-7002-8", "time": "เปิดบริการ 24 ชั่วโมง" }, "geometry": { "type": "Point", "coordinates": [ 100.642430155834205, 13.735802370498348 ] } },
{ "type": "Feature", "properties": { "name": "สยามแม็คโครจำกัด สาขาบางบอน", "address": "40/8 ม10 ถ.สายวงแหวนแยกเอกชัย - เพชรเกษม แขวงบางบอน เขตบางบอน กรุงเทพฯ", "dcode": "1050", "tel": "02-4168080-90", "time": "เวลา 06.00 ? 22.00 น." }, "geometry": { "type": "Point", "coordinates": [ 100.405993190057487, 13.664280761841102 ] } },
{ "type": "Feature", "properties": { "name": "สยามแม็คโครจำกัด สาขาลาดพร้าว", "address": "3498 ถ.ลาดพร้าว แขวงคลองจั่น เขตบางกะปิ กรุงเทพฯ", "dcode": "1006", "tel": "02-375-2789", "time": "ทำการทุกวัน 10:30-19:30 น." }, "geometry": { "type": "Point", "coordinates": [ 100.640122491046867, 13.768527522350155 ] } },
{ "type": "Feature", "properties": { "name": "สยามแม็คโครจำกัด สาขาจรัญสนิทวงศ์", "address": "521-521/7 ถ.จรัญสนิทวงศ์ แขวงบางขุนศรี เขตบางกอกน้อย กรุงเทพฯ", "dcode": "1020", "tel": "0-2864-5714", "time": "ทำการทุกวัน 10:30-19:30 น." }, "geometry": { "type": "Point", "coordinates": [ 100.470273860914432, 13.761618539338309 ] } },
{ "type": "Feature", "properties": { "name": "สยามแม็คโคร สาขาสาธร (นราธิวาส)", "address": "1 ถ.นราธิวาสราชนครินทร์ แขวงทุ่งวัดดอน เขตสาธร กรุงเทพฯ", "dcode": "1028", "tel": "02-676-0676", "time": "ทำการทุกวัน 10:30-19:30" }, "geometry": { "type": "Point", "coordinates": [ 100.534990407564379, 13.709907756362592 ] } },
{ "type": "Feature", "properties": { "name": "สยามแม็คโคร สาขาสามเสน", "address": "935/11 ถ.สามเสน แขวงถนนนครไชยศรี เขตดุสิต กรุงเทพฯ", "dcode": "1002", "tel": "02-241-8400", "time": "ทำการทุกวัน 10:30-19:30" }, "geometry": { "type": "Point", "coordinates": [ 100.512879003747386, 13.791120697620919 ] } },
{ "type": "Feature", "properties": { "name": "ห้างสรรพสินค้าเซ็นทรัล สาขาสีลม", "address": "306 ถ.สีลม แขวงสุริยวงศ์ เขตบางรัก กรุงเทพฯ", "dcode": "1004", "tel": "02-101-8124-37", "time": "เวลา 10:00 น. และปิดในเวลา 19:00 น" }, "geometry": { "type": "Point", "coordinates": [ 100.520365648571911, 13.724313878104251 ] } },
{ "type": "Feature", "properties": { "name": "ห้างสรรพสินค้า เซ็นทรัลชิดลม", "address": "ถ.เพลินจิต แขวงลุมพินี เขตปทุมวัน กรุงเทพฯ", "dcode": "1007", "tel": "02-7937777", "time": "เวลาเปิด/ปิด10:00 น.?22:00 น." }, "geometry": { "type": "Point", "coordinates": [ 100.544267166789467, 13.744434129531296 ] } },
{ "type": "Feature", "properties": { "name": "ห้างสรรพสินค้า เซ็นทรัลพระราม 3", "address": "79/3 ถ.สาธุประดิษฐ์ แขวงช่องนนทรี เขตยานนาวา กรุงเทพฯ", "dcode": "1012", "tel": "-", "time": "เวลาเปิด/ปิด10:00 น.?22:00 น." }, "geometry": { "type": "Point", "coordinates": [ 100.537521345371246, 13.697679175533107 ] } },
{ "type": "Feature", "properties": { "name": "ห้างสรรพสินค้าโรบินสัน บางรัก", "address": "1522 ถ.เจริญกรุง แขวงบางรัก เขตบางรัก กรุงเทพฯ", "dcode": "1004", "tel": "-", "time": "วันเวลาเปิด-ปิดจันทร์ - พฤหัส 11:00-21:00 น. ศุกร์ 11:00 - 21:30 น. เสาร์ -" }, "geometry": { "type": "Point", "coordinates": [ 100.515144545635934, 13.719634995550814 ] } },
{ "type": "Feature", "properties": { "name": "ห้างสรรพสินค้าโรบินสัน รัชดา", "address": "139 ถ.รัชดาภิเษก แขวงดินแดง เขตดินแดง กรุงเทพฯ", "dcode": "1026", "tel": "02-2482626-35,02-2245300-9", "time": "จันทร์-ศุกร์ เวลา 10.00 ? 22.00 น.เสาร์-อาทิตย์ และวันหยุดนักขัตฤกษ์ เวลา 1" }, "geometry": { "type": "Point", "coordinates": [ 100.572131239544035, 13.76998635941025 ] } },
{ "type": "Feature", "properties": { "name": "ห้างสรรพสินค้าโรบินสัน สุขุมวิท", "address": "259 ถ.สุขุมวิท แขวงคลองเตยเหนือ เขตวัฒนา กรุงเทพฯ", "dcode": "1039", "tel": "02-6511533-42,022525121", "time": "จันทร์-ศุกร์ เวลา 10.00 ? 22.00 น.เสาร์-อาทิตย์ และวันหยุดนักขัตฤกษ์ เวลา 1" }, "geometry": { "type": "Point", "coordinates": [ 100.559315298547702, 13.738330072356792 ] } },
{ "type": "Feature", "properties": { "name": "ห้างสรรพสินค้าโรบินสัน บางแค", "address": "110/5 หมู่ 9 ถ.เพชรเกษม แขวงบางหว้า เขตภาษีเจริญ กรุงเทพฯ", "dcode": "1022", "tel": "02-455-0143-45", "time": "จันทร์-ศุกร์ เวลา 10.00 ? 22.00 น.เสาร์-อาทิตย์ และวันหยุดนักขัตฤกษ์ เวลา 1" }, "geometry": { "type": "Point", "coordinates": [ 100.434081484602814, 13.712116586067332 ] } },
{ "type": "Feature", "properties": { "name": "ห้างสรรพสินค้าโรบินสัน ศรีนครินทร์", "address": "904 /1 หมู่ 6 ถ.ศรีนครินทร์ แขวงหนองบอน เขตประเวศ กรุงเทพฯ", "dcode": "1032", "tel": "02-721-8990-9", "time": "เปิดบริการทุกวันตั้งแต่เวลา 10.00-19.00 น." }, "geometry": { "type": "Point", "coordinates": [ 100.648331961642981, 13.695208885189082 ] } },
{ "type": "Feature", "properties": { "name": "ห้างสรรพสินค้าโรบินสัน แฟชั่นไอแลนด์", "address": "5/7 ม. 7 ถ.รามอินทรา แขวงคันนายาว เขตคันนายาว กรุงเทพฯ", "dcode": "1043", "tel": "02-9475320-62", "time": "เปิดเวลา: จ-ศุกร์ 11:00-21:00, เสาร์-อา 10:00-21:00" }, "geometry": { "type": "Point", "coordinates": [ 100.6785789072445, 13.824431827220653 ] } },
{ "type": "Feature", "properties": { "name": "ห้างสรรพสินค้าโรบินสัน ลาดหญ้า", "address": "99 ถ.ลาดหญ้า แขวงสมเด็จเจ้าพระยา เขตคลองสาน กรุงเทพฯ", "dcode": "1018", "tel": "02-4370111,024370104-5", "time": "จันทร์-ศุกร์ เวลา 10.00 ? 22.00 น.เสาร์-อาทิตย์ และวันหยุดนักขัตฤกษ์ เวลา 1" }, "geometry": { "type": "Point", "coordinates": [ 100.494873205718221, 13.726994536176091 ] } },
{ "type": "Feature", "properties": { "name": "ห้างสรรพสินค้าบางลำภู (ประชาราษฎร์2)", "address": "162/1 ถ.ประชาราษฎร์ สาย 2 แขวงบางซื่อ เขตบางซื่อ กรุงเทพฯ", "dcode": "1029", "tel": "02-912-7600-6", "time": "ทำการทุกวัน 10:00-18:30น." }, "geometry": { "type": "Point", "coordinates": [ 100.524177357003168, 13.805799639674774 ] } },
{ "type": "Feature", "properties": { "name": "ห้างสรรพสินค้าบางลำภู", "address": "85/1 ถ.ตานี แขวงตลาดยอด เขตพระนคร กรุงเทพฯ", "dcode": "1001", "tel": "02-2822507-10", "time": "วันเวลาเปิด-ปิด 10.00-22.00 น" }, "geometry": { "type": "Point", "coordinates": [ 100.498365023765274, 13.760750394920052 ] } },
{ "type": "Feature", "properties": { "name": "ห้างสรรพสินค้าเซ็นทรัล สาขาสีลมคอมเพล็กซ์", "address": "191 ถ.สีลม แขวงสีลม เขตบางรัก กรุงเทพฯ", "dcode": "1004", "tel": "02-231 3333", "time": "ทุกวัน เวลา : 10.00-22.00 น" }, "geometry": { "type": "Point", "coordinates": [ 100.534857440663487, 13.728298940051179 ] } },
{ "type": "Feature", "properties": { "name": "ห้างสรรพสินค้าเซ็นทรัล สาขารามอินทรา", "address": "109/9 ม.3 ถ.รามอินทรา แขวงอนุสาวรีย์ เขตบางเขน กรุงเทพฯ", "dcode": "1005", "tel": "02-797 8000", "time": "เวลา เปิด-ปิด- จันทร์-ศุกร์ 10:00-21:00- เสาร์-อาทิตย์ และ วันหยุดนักขัตฤกษ" }, "geometry": { "type": "Point", "coordinates": [ 100.601756903778934, 13.871970463908783 ] } },
{ "type": "Feature", "properties": { "name": "ห้างสรรพสินค้าเซ็นทรัล บางนา", "address": "หมู่ 12 ถ.บางนา-ตราด แขวงบางนา เขตบางนา กรุงเทพฯ", "dcode": "1047", "tel": "02-7255000", "time": "จันทร์ - พฤหัส 10:30 - 21:00 น. ศุกร์ 10:30 - 22:00 น. เสาร์ - อาทิตย์ และว" }, "geometry": { "type": "Point", "coordinates": [ 100.63429800693936, 13.669268041423919 ] } },
{ "type": "Feature", "properties": { "name": "ห้างสรรพสินค้าเซ็นทรัล สาขาลาดพร้าว", "address": "1697 ถ.พหลโยธิน แขวงจตุจักร เขตจตุจักร กรุงเทพฯ", "dcode": "1030", "tel": "02-9371716", "time": "ทุกวันเวลา 10.00 น. - 22.00 น." }, "geometry": { "type": "Point", "coordinates": [ 100.560141505300948, 13.816305655857034 ] } },
{ "type": "Feature", "properties": { "name": "ห้างสรรพสินค้าเดอะมอลล์ สาขารามคำแหง(2)", "address": "1988/2 ถ.รามคำแหง แขวงหัวหมาก เขตบางกะปิ กรุงเทพฯ", "dcode": "1006", "tel": "02-318-9190", "time": "วันจันทร์ - วันศุกร์ 10.30 น. -21.00 น" }, "geometry": { "type": "Point", "coordinates": [ 100.611095192328179, 13.750339708660521 ] } },
{ "type": "Feature", "properties": { "name": "ห้างสรรพสินค้าเดอะมอลล์ สาขารามคำแหง (4)", "address": "1911 ถ.รามคำแหง แขวงหัวหมาก เขตบางกะปิ กรุงเทพฯ", "dcode": "1006", "tel": "-", "time": "เวลาเปิด-ปิดร้าน, วันจันทร์ - วันศุกร์ 10.30 น. -21.00 น" }, "geometry": { "type": "Point", "coordinates": [ 100.610533731614055, 13.753845889072075 ] } },
{ "type": "Feature", "properties": { "name": "ศูนย์การค้าสยามเซ็นเตอร์", "address": "ถ.พระราม 1 แขวงปทุมวัน เขตปทุมวัน กรุงเทพฯ", "dcode": "1007", "tel": "-", "time": "ทุกวันเวลา 10.00 น. - 22.00 น." }, "geometry": { "type": "Point", "coordinates": [ 100.53268584017647, 13.746283130311964 ] } },
{ "type": "Feature", "properties": { "name": "ห้างสรรพสินค้าเซ็นทรัลวงศ์สว่าง", "address": "888 ถ.พิบูลสงคราม แขวงบางซื่อ เขตบางซื่อ กรุงเทพฯ", "dcode": "1029", "tel": "-", "time": "ทำการทุกวัน 10:00-22:00 ." }, "geometry": { "type": "Point", "coordinates": [ 100.519946762534829, 13.800769322934192 ] } },
{ "type": "Feature", "properties": { "name": "ห้างวันเดอร์ ดีพาร์ทเม้นสโตร์", "address": "24/9 ถ.เพชรเกษม แขวงบางแค เขตบางแค กรุงเทพฯ", "dcode": "1040", "tel": "024135533", "time": "-" }, "geometry": { "type": "Point", "coordinates": [ 100.424034493890218, 13.711652064449122 ] } },
{ "type": "Feature", "properties": { "name": "ห้างสรรพสินค้า IT Square", "address": "ถ.แจ้งวัฒนะ แขวงตลาดบางเขน เขตหลักสี่ กรุงเทพฯ", "dcode": "1041", "tel": "-", "time": "จ-ศุกร์ 11:00-21:00, เสาร์-อา 10:30-21:00" }, "geometry": { "type": "Point", "coordinates": [ 100.581035221850385, 13.886078180690989 ] } },
{ "type": "Feature", "properties": { "name": "ห้างสรรพสินค้าจัสโก้", "address": "ถ.เอกชัย แขวงบางบอน เขตบางบอน กรุงเทพฯ", "dcode": "1050", "tel": "-", "time": "เปิดบริการทุกวัน 24 ชั่วโมง" }, "geometry": { "type": "Point", "coordinates": [ 100.426172837149821, 13.671804987299865 ] } },
{ "type": "Feature", "properties": { "name": "ห้างสรรพสินค้าซีคอนสแควร์", "address": "ถ.ศรีนครินทร์ แขวงหนองบอน เขตประเวศ กรุงเทพฯ", "dcode": "1032", "tel": "-", "time": "ทำการทุกวัน 10:00-22:00น ." }, "geometry": { "type": "Point", "coordinates": [ 100.648205324762756, 13.694302205254358 ] } },
{ "type": "Feature", "properties": { "name": "ห้างสรรพสินค้าดีเซมเบอร์", "address": "ถ.นวมินทร์ แขวงหัวหมาก เขตบางกะปิ กรุงเทพฯ", "dcode": "1006", "tel": "-", "time": "ทุกวัน จันทร์ ? เสาร์ เวลา 11.00 ? 22.00 น" }, "geometry": { "type": "Point", "coordinates": [ 100.648335159125239, 13.765010413058407 ] } },
{ "type": "Feature", "properties": { "name": "ห้างฟู๊ดแลนด์ สาขาหลักสี่", "address": "333/100 อาคารหลักสี่พลาซ่า ม.4 ถ.แจ้งวัฒนะ แขวงตลาดบางเขน เขตหลักสี่", "dcode": "1041", "tel": "02-5760601-9", "time": "เปิดบริการทุกวัน 24 ชั่วโมง" }, "geometry": { "type": "Point", "coordinates": [ 100.581618848737051, 13.887116107548296 ] } },
{ "type": "Feature", "properties": { "name": "ห้างฟู๊ดแลนด์ สาขาสุขุมวิท 16", "address": "48 อาคารคอมลัมน์ ซ.สุขุมวิท 16 ถ.สุขุมมิตร แขวงคลองเตย เขตคลองเตย กทม.", "dcode": "1033", "tel": "02-2042177-8", "time": "เปิดบริการทุกวัน 24 ชั่วโมง" }, "geometry": { "type": "Point", "coordinates": [ 100.560253789729146, 13.732997021463211 ] } },
{ "type": "Feature", "properties": { "name": "บิ๊กซี สุขาภิบาล 3", "address": "103 ถนนรามคำแหง แขวงมีนบุรี เขตมีนบุรี กรุงเทพฯ", "dcode": "1010", "tel": "-", "time": "ทุกวัน 9.00 - 23.00 น." }, "geometry": { "type": "Point", "coordinates": [ 100.727095532877044, 13.808444871020969 ] } },
{ "type": "Feature", "properties": { "name": "คาร์ฟู สุขาภิบาล 3", "address": "1245 ถนนรามคำแหง(สุขาภิบาล3)แขวงหัวหมาก เขตบางกะปิ กรุงเทพฯ", "dcode": "1006", "tel": "-", "time": "ทุกวัน 9.00 - 23.00 น." }, "geometry": { "type": "Point", "coordinates": [ 100.633574539725871, 13.760969398071477 ] } },
{ "type": "Feature", "properties": { "name": "คาร์ฟู ร่มเกล้า", "address": "42,44 ถ.ร่มเกล้า  แขวงมีนบุรี เขตมีนบุรี กรุงเทพฯ", "dcode": "1010", "tel": "-", "time": "ทุกวัน 9.00 - 23.00 น." }, "geometry": { "type": "Point", "coordinates": [ 100.741260680592575, 13.801312053586249 ] } },
{ "type": "Feature", "properties": { "name": "แฟชั่นไอซ์แลนด์", "address": "5/7 ม.7 ถ.รามอินทรา แขวงคันนายาว เขตคันนายาว กรุงเทพฯ", "dcode": "1043", "tel": "02-9475320,029475369", "time": "ทำการทุกวัน 10:00-21:00น ." }, "geometry": { "type": "Point", "coordinates": [ 100.678491506805273, 13.82501407786922 ] } },
{ "type": "Feature", "properties": { "name": "เกษรพลาซ่า ปทุมวัน", "address": "999 ถนนเพลินจิต แขวงลุมพินี ปทุมวัน กรุงเทพฯ", "dcode": "1007", "tel": "02 656 1149", "time": "ทุกวัน 10:00 - 20:00 น" }, "geometry": { "type": "Point", "coordinates": [ 100.540715848701694, 13.746298745752018 ] } }
]
}
